{"type":"FeatureCollection","features":[{"type":"Feature","properties":{"NAME":"AMERICAN GYPSUM COMPANY","GHGRP_ID":1007404,"REPORTED ADDRESS":"740 Highway #6","CITY":"GYPSUM","COUNTY":"EAGLE","STATE":"CO","ZIP":81637,"GHG_QUANTITY":55649},"geometry":{"type":"Point","coordinates":[-106.939169,39.66067]}},{"type":"Feature","properties":{"NAME":"ANHEUSER BUSCH INCORPORATED FORT COLLINS BREWERY","GHGRP_ID":1003352,"REPORTED ADDRESS":"2351 BUSCH DRIVE","CITY":"FORT COLLINS","COUNTY":"LARIMER","STATE":"CO","ZIP":80524,"GHG_QUANTITY":51003},"geometry":{"type":"Point","coordinates":[-105.006111,40.619722]}},{"type":"Feature","properties":{"NAME":"Arapahoe Combustion Turbine Facility","GHGRP_ID":1001360,"REPORTED ADDRESS":"2601 SOUTH PLATTE RIVER ROAD","CITY":"DENVER","COUNTY":"Denver","STATE":"CO","ZIP":80223,"GHG_QUANTITY":58691},"geometry":{"type":"Point","coordinates":[-105.0018,39.6692]}},{"type":"Feature","properties":{"NAME":"Arkansas Loop & Simpson Treating Plants","GHGRP_ID":1001760,"REPORTED ADDRESS":"","CITY":"DURANGO","COUNTY":"La Plata","STATE":"CO","ZIP":81303,"GHG_QUANTITY":75195},"geometry":{"type":"Point","coordinates":[-107.7855,37.0532]}},{"type":"Feature","properties":{"NAME":"Atmel Corporation","GHGRP_ID":1009792,"REPORTED ADDRESS":"1150 E. Cheyenne Mountain Boulevard","CITY":"Colorado Springs","COUNTY":"EL PASO","STATE":"CO","ZIP":80906,"GHG_QUANTITY":16284},"geometry":{"type":"Point","coordinates":[-104.805626,38.789076]}},{"type":"Feature","properties":{"NAME":"Avago Technologies","GHGRP_ID":1008734,"REPORTED ADDRESS":"4380 Ziegler Road","CITY":"Fort Collins","COUNTY":"LARIMER COUNTY","STATE":"CO","ZIP":80525,"GHG_QUANTITY":10858},"geometry":{"type":"Point","coordinates":[-105.02021,40.5236]}},{"type":"Feature","properties":{"NAME":"BARGATH, INC- HYRUP PROD FACILITY","GHGRP_ID":1002944,"REPORTED ADDRESS":"","CITY":"PARACHUTE","COUNTY":"Garfield","STATE":"CO","ZIP":81635,"GHG_QUANTITY":16342},"geometry":{"type":"Point","coordinates":[-108.06329,39.369139]}},{"type":"Feature","properties":{"NAME":"BARGATH, INC.- PARACHUTE","GHGRP_ID":1002943,"REPORTED ADDRESS":"","CITY":"PARACHUTE, 3.4 MI NW OF","COUNTY":"Garfield","STATE":"CO","ZIP":81635,"GHG_QUANTITY":147772},"geometry":{"type":"Point","coordinates":[-108.111356,39.487297]}},{"type":"Feature","properties":{"NAME":"BROADACRE LANDFILL - FOUNTAIN LANDFILL","GHGRP_ID":1006464,"REPORTED ADDRESS":"10000 SQUIRREL CREEK RD","CITY":"FOUNTAIN","COUNTY":"EL PASO","STATE":"CO","ZIP":80817,"GHG_QUANTITY":11},"geometry":{"type":"Point","coordinates":[-104.628161,38.679516]}},{"type":"Feature","properties":{"NAME":"Bargath LLC - Crawford Trail CS","GHGRP_ID":1002945,"REPORTED ADDRESS":"","CITY":"Parachute","COUNTY":"Garfield","STATE":"CO","ZIP":81635,"GHG_QUANTITY":28499},"geometry":{"type":"Point","coordinates":[-108.184214,39.503457]}},{"type":"Feature","properties":{"NAME":"Big Hole Compressor Station","GHGRP_ID":1011077,"REPORTED ADDRESS":"37607 County Road 7","CITY":"Craig","COUNTY":"MOFFAT COUNTY","STATE":"CO","ZIP":81625,"GHG_QUANTITY":2827},"geometry":{"type":"Point","coordinates":[-107.763621,40.768594]}},{"type":"Feature","properties":{"NAME":"Blue Spruce Energy Center","GHGRP_ID":1000141,"REPORTED ADDRESS":"1751 N POWHATON RD","CITY":"AURORA","COUNTY":"Adams","STATE":"CO","ZIP":80019,"GHG_QUANTITY":266600},"geometry":{"type":"Point","coordinates":[-104.68,39.7436]}},{"type":"Feature","properties":{"NAME":"Bondad Compressor Station","GHGRP_ID":1001759,"REPORTED ADDRESS":"","CITY":"DURANGO","COUNTY":"La Plata","STATE":"CO","ZIP":81301,"GHG_QUANTITY":20305},"geometry":{"type":"Point","coordinates":[-107.8829,37.0881]}},{"type":"Feature","properties":{"NAME":"Brush Power Projects","GHGRP_ID":1001224,"REPORTED ADDRESS":"1500 S CLAYTON","CITY":"BRUSH","COUNTY":"Morgan","STATE":"CO","ZIP":80723,"GHG_QUANTITY":22696},"geometry":{"type":"Point","coordinates":[-103.631,40.2415]}},{"type":"Feature","properties":{"NAME":"CARESTREAM HEALTH INC.","GHGRP_ID":1007717,"REPORTED ADDRESS":"2000 HOWARD SMITH AVE WEST","CITY":"WINDSOR","COUNTY":"WELD COUNTY","STATE":"CO","ZIP":80550,"GHG_QUANTITY":30999},"geometry":{"type":"Point","coordinates":[-104.87399,40.4584]}},{"type":"Feature","properties":{"NAME":"CARGILL MEAT SOLUTIONS CORPORATION","GHGRP_ID":1000357,"REPORTED ADDRESS":"1505 EAST BURLINGTON AVENUE","CITY":"FORT MORGAN","COUNTY":"MORGAN COUNTY","STATE":"CO","ZIP":80701,"GHG_QUANTITY":26332},"geometry":{"type":"Point","coordinates":[-103.7756,40.2469]}},{"type":"Feature","properties":{"NAME":"CEMEX CONSTRUCTION MATERIALS SOUTH LLC","GHGRP_ID":1007877,"REPORTED ADDRESS":"5134 UTE HIGHWAY","CITY":"LYONS","COUNTY":"BOULDER","STATE":"CO","ZIP":80540,"GHG_QUANTITY":4161},"geometry":{"type":"Point","coordinates":[-105.236697,40.202236]}},{"type":"Feature","properties":{"NAME":"CF & I STEEL L P/ DBA ROCKY MOUNTAIN STEEL MILLS","GHGRP_ID":1003902,"REPORTED ADDRESS":"2100 SOUTH FREEWAY","CITY":"PUEBLO","COUNTY":"PUEBLO","STATE":"CO","ZIP":81004,"GHG_QUANTITY":151967},"geometry":{"type":"Point","coordinates":[-104.607257,38.232627]}},{"type":"Feature","properties":{"NAME":"CIG Station 5320 Fort Lupton, CO","GHGRP_ID":1010489,"REPORTED ADDRESS":"15732 Weld County Road 16","CITY":"Ft. Lupton","COUNTY":"WELD","STATE":"CO","ZIP":80261,"GHG_QUANTITY":24136},"geometry":{"type":"Point","coordinates":[-104.758947,40.130922]}},{"type":"Feature","properties":{"NAME":"CIG Station 5560 Kit Carson, CO","GHGRP_ID":1001994,"REPORTED ADDRESS":"3073 US HIGHWAY 287","CITY":"EADS","COUNTY":"KIOWA","STATE":"CO","ZIP":81036,"GHG_QUANTITY":17565},"geometry":{"type":"Point","coordinates":[-102.759485,38.413345]}},{"type":"Feature","properties":{"NAME":"CIG Station 5610 Greasewood, CO","GHGRP_ID":1008151,"REPORTED ADDRESS":"5200 County Road 3","CITY":"Rifle","COUNTY":"GARFIELD","STATE":"CO","ZIP":81650,"GHG_QUANTITY":27167},"geometry":{"type":"Point","coordinates":[-108.105434,39.854648]}},{"type":"Feature","properties":{"NAME":"CIG Station 5850 Cheyenne, CO","GHGRP_ID":1002127,"REPORTED ADDRESS":"65657 Highway 85","CITY":"CARR","COUNTY":"WELD","STATE":"CO","ZIP":80612,"GHG_QUANTITY":55705},"geometry":{"type":"Point","coordinates":[-104.892167,40.908951]}},{"type":"Feature","properties":{"NAME":"CIG Station 5950 Watkins, CO","GHGRP_ID":1002061,"REPORTED ADDRESS":"24650 East Smith Road","CITY":"AURORA","COUNTY":"ADAMS","STATE":"CO","ZIP":80019,"GHG_QUANTITY":31449},"geometry":{"type":"Point","coordinates":[-104.698908,39.745283]}},{"type":"Feature","properties":{"NAME":"COLORADO STATE UNIVERSITY","GHGRP_ID":1004581,"REPORTED ADDRESS":"6030 Campus Delivery","CITY":"FORT COLLINS","COUNTY":"LARIMER","STATE":"CO","ZIP":80523,"GHG_QUANTITY":42745},"geometry":{"type":"Point","coordinates":[-105.09,40.57]}},{"type":"Feature","properties":{"NAME":"Callahan Compressor Station","GHGRP_ID":1002873,"REPORTED ADDRESS":"","CITY":"PARACHUTE","COUNTY":"Garfield","STATE":"CO","ZIP":81635,"GHG_QUANTITY":26024},"geometry":{"type":"Point","coordinates":[-108.08675,39.468423]}},{"type":"Feature","properties":{"NAME":"Central Treating Facility","GHGRP_ID":1004824,"REPORTED ADDRESS":"","CITY":"Meeker","COUNTY":"Rio Blanco","STATE":"CO","ZIP":81641,"GHG_QUANTITY":38973},"geometry":{"type":"Point","coordinates":[-108.2957,39.8338]}},{"type":"Feature","properties":{"NAME":"Cherokee","GHGRP_ID":1007207,"REPORTED ADDRESS":"6198 FRANKLIN ST","CITY":"DENVER","COUNTY":"Adams","STATE":"CO","ZIP":80216,"GHG_QUANTITY":3058144},"geometry":{"type":"Point","coordinates":[-104.9648,39.8078]}},{"type":"Feature","properties":{"NAME":"Clough Compressor Station","GHGRP_ID":1003022,"REPORTED ADDRESS":"","CITY":"RIFLE","COUNTY":"Garfield","STATE":"CO","ZIP":81650,"GHG_QUANTITY":24413},"geometry":{"type":"Point","coordinates":[-107.889912,39.51861]}},{"type":"Feature","properties":{"NAME":"Colorado Energy Nations Company LLC (Golden Facility)","GHGRP_ID":1003568,"REPORTED ADDRESS":"1003 Vasquez Street","CITY":"GOLDEN","COUNTY":"JEFFERSON","STATE":"CO","ZIP":80401,"GHG_QUANTITY":379090},"geometry":{"type":"Point","coordinates":[-105.215,39.760555]}},{"type":"Feature","properties":{"NAME":"Colorado Springs Landfill","GHGRP_ID":1008019,"REPORTED ADDRESS":"1010 Blaney Road","CITY":"Colorado Springs","COUNTY":"EL PASO","STATE":"CO","ZIP":80929,"GHG_QUANTITY":479},"geometry":{"type":"Point","coordinates":[-104.572053,38.847491]}},{"type":"Feature","properties":{"NAME":"Comanche (470)","GHGRP_ID":1001462,"REPORTED ADDRESS":"2005 LIME RD","CITY":"PUEBLO","COUNTY":"Pueblo","STATE":"CO","ZIP":81006,"GHG_QUANTITY":8424502},"geometry":{"type":"Point","coordinates":[-104.5747,38.2081]}},{"type":"Feature","properties":{"NAME":"Compressor Station 601","GHGRP_ID":1002406,"REPORTED ADDRESS":"37500 County Rd 78","CITY":"Peetz","COUNTY":"LOGAN","STATE":"CO","ZIP":80747,"GHG_QUANTITY":56412},"geometry":{"type":"Point","coordinates":[-102.855976,40.994389]}},{"type":"Feature","properties":{"NAME":"Conn Creek Compressor Station","GHGRP_ID":1007414,"REPORTED ADDRESS":"","CITY":"De Beque","COUNTY":"Garfield","STATE":"CO","ZIP":81630,"GHG_QUANTITY":32910},"geometry":{"type":"Point","coordinates":[-108.2479,39.4819]}},{"type":"Feature","properties":{"NAME":"Cottonwood Point Compressor Station","GHGRP_ID":1003011,"REPORTED ADDRESS":"","CITY":"PARACHUTE","COUNTY":"Garfield","STATE":"CO","ZIP":81635,"GHG_QUANTITY":30408},"geometry":{"type":"Point","coordinates":[-107.991952,39.481874]}},{"type":"Feature","properties":{"NAME":"Coyote Gulch Treating Plant","GHGRP_ID":1001946,"REPORTED ADDRESS":"","CITY":"DURANGO","COUNTY":"La Plata","STATE":"CO","ZIP":81301,"GHG_QUANTITY":41543},"geometry":{"type":"Point","coordinates":[-108.0615,37.0141]}},{"type":"Feature","properties":{"NAME":"Craig","GHGRP_ID":1001008,"REPORTED ADDRESS":"2101 S RANNEY","CITY":"CRAIG","COUNTY":"Moffat","STATE":"CO","ZIP":81626,"GHG_QUANTITY":8213834},"geometry":{"type":"Point","coordinates":[-107.5912,40.4627]}},{"type":"Feature","properties":{"NAME":"DEBEQUE GAS PROCESSING FACILITY","GHGRP_ID":1011635,"REPORTED ADDRESS":"","CITY":"De Beque","COUNTY":"Mesa","STATE":"CO","ZIP":81630,"GHG_QUANTITY":20377},"geometry":{"type":"Point","coordinates":[-108.2431,39.3269]}},{"type":"Feature","properties":{"NAME":"DENVER ARAPAHOE DISPOSAL SITE-A WASTE MANAGEMENT COMPANY","GHGRP_ID":1007709,"REPORTED ADDRESS":"3500 SOUTH GUN CLUB ROAD","CITY":"AURORA","COUNTY":"ARAPAHOE COUNTY","STATE":"CO","ZIP":80018,"GHG_QUANTITY":909},"geometry":{"type":"Point","coordinates":[-104.70914,39.64566]}},{"type":"Feature","properties":{"NAME":"DENVER INTERNATIONAL AIRPORT","GHGRP_ID":1004796,"REPORTED ADDRESS":"8500 PENA BOULEVARD","CITY":"DENVER","COUNTY":"DENVER","STATE":"CO","ZIP":80249,"GHG_QUANTITY":27704},"geometry":{"type":"Point","coordinates":[-104.70436,39.83425]}},{"type":"Feature","properties":{"NAME":"ENCANA OIL AND GAS USA - DRAGON TRAIL GAS PLANT - 08-103-00036","GHGRP_ID":1003447,"REPORTED ADDRESS":"3606 COUNTY ROAD 116","CITY":"RANGELY","COUNTY":"RIO BLANCO","STATE":"CO","ZIP":81648,"GHG_QUANTITY":18773},"geometry":{"type":"Point","coordinates":[-108.915996,39.859473]}},{"type":"Feature","properties":{"NAME":"ENTERPRISE COMPRESSOR STATION","GHGRP_ID":1002666,"REPORTED ADDRESS":"10002 Weld County Road 59","CITY":"LaSalle","COUNTY":"WELD","STATE":"CO","ZIP":80645,"GHG_QUANTITY":47367},"geometry":{"type":"Point","coordinates":[-104.4877,40.191]}},{"type":"Feature","properties":{"NAME":"EPNG Station 6210 Bondad","GHGRP_ID":1002116,"REPORTED ADDRESS":"2227 County Road 318","CITY":"Ignacio","COUNTY":"LA PLATA","STATE":"CO","ZIP":81137,"GHG_QUANTITY":40486},"geometry":{"type":"Point","coordinates":[-107.769381,37.096339]}},{"type":"Feature","properties":{"NAME":"Eagle Valley Clean Energy","GHGRP_ID":1011681,"REPORTED ADDRESS":"10775 HWY 6","CITY":"Gypsum","COUNTY":"EAGLE COUNTY","STATE":"CO","ZIP":81637,"GHG_QUANTITY":28},"geometry":{"type":"Point","coordinates":[-106.940343,39.646803]}},{"type":"Feature","properties":{"NAME":"FORT CARSON USARMY","GHGRP_ID":1007910,"REPORTED ADDRESS":"1626 Evans Street, Bldg 1219","CITY":"Fort Carson","COUNTY":"EL PASO","STATE":"CO","ZIP":80913,"GHG_QUANTITY":55972},"geometry":{"type":"Point","coordinates":[-104.79509,38.76408]}},{"type":"Feature","properties":{"NAME":"FRONT RANGE ENERGY","GHGRP_ID":1006942,"REPORTED ADDRESS":"31375 GREAT WESTERN DRIVE","CITY":"WINDSOR","COUNTY":"WELD","STATE":"CO","ZIP":80550,"GHG_QUANTITY":36283},"geometry":{"type":"Point","coordinates":[-104.857553,40.455978]}},{"type":"Feature","properties":{"NAME":"Florida River Gas Processing Facility","GHGRP_ID":1003223,"REPORTED ADDRESS":"2906 CR 307","CITY":"Durango","COUNTY":"LA PLATA","STATE":"CO","ZIP":81303,"GHG_QUANTITY":61078},"geometry":{"type":"Point","coordinates":[-107.77978,37.15639]}},{"type":"Feature","properties":{"NAME":"Fort Lupton Compressor Station","GHGRP_ID":1001977,"REPORTED ADDRESS":"","CITY":"Brighton","COUNTY":"Weld","STATE":"CO","ZIP":80601,"GHG_QUANTITY":182229},"geometry":{"type":"Point","coordinates":[-104.7515,40.1434]}},{"type":"Feature","properties":{"NAME":"Fort St. Vrain","GHGRP_ID":1001029,"REPORTED ADDRESS":"16805 WELD CR 19 12","CITY":"PLATTEVILLE","COUNTY":"Weld","STATE":"CO","ZIP":80651,"GHG_QUANTITY":1496881},"geometry":{"type":"Point","coordinates":[-104.8742,40.2461]}},{"type":"Feature","properties":{"NAME":"Fountain Valley Power Plant","GHGRP_ID":1007383,"REPORTED ADDRESS":"18693 Boca Raton Heights","CITY":"Fountain","COUNTY":"El Paso","STATE":"CO","ZIP":80817,"GHG_QUANTITY":184636},"geometry":{"type":"Point","coordinates":[-104.6875,38.5569]}},{"type":"Feature","properties":{"NAME":"Frank Knutson Station","GHGRP_ID":1000061,"REPORTED ADDRESS":"13501 POWHATEN ROAD","CITY":"COMMERCE CITY","COUNTY":"Adams","STATE":"CO","ZIP":80022,"GHG_QUANTITY":4849},"geometry":{"type":"Point","coordinates":[-104.6817,39.9414]}},{"type":"Feature","properties":{"NAME":"Fredrick Compressor Station","GHGRP_ID":1002206,"REPORTED ADDRESS":"","CITY":"Brighton","COUNTY":"Weld","STATE":"CO","ZIP":80601,"GHG_QUANTITY":52200},"geometry":{"type":"Point","coordinates":[-104.8852,40.0573]}},{"type":"Feature","properties":{"NAME":"Front Range Power Plant","GHGRP_ID":1001400,"REPORTED ADDRESS":"6615 GENERATION DRIVE","CITY":"FOUNTAIN","COUNTY":"El Paso","STATE":"CO","ZIP":80817,"GHG_QUANTITY":758913},"geometry":{"type":"Point","coordinates":[-104.7069,38.6281]}},{"type":"Feature","properties":{"NAME":"GCC RIO GRANDE INC","GHGRP_ID":1003067,"REPORTED ADDRESS":"3372 LIME ROAD","CITY":"PUEBLO","COUNTY":"PUEBLO","STATE":"CO","ZIP":81004,"GHG_QUANTITY":965},"geometry":{"type":"Point","coordinates":[-104.62595,38.1507]}},{"type":"Feature","properties":{"NAME":"GREELEY GAS PLANT","GHGRP_ID":1006310,"REPORTED ADDRESS":"3009 WEST 49TH STREET","CITY":"GREELEY","COUNTY":"WELD COUNTY","STATE":"CO","ZIP":80634,"GHG_QUANTITY":32251},"geometry":{"type":"Point","coordinates":[-104.76003,40.38812]}},{"type":"Feature","properties":{"NAME":"GRG - EAST MAMM CREEK CS","GHGRP_ID":1003630,"REPORTED ADDRESS":"","CITY":"RIFLE, 2.0 MI SE OF","COUNTY":"Garfield","STATE":"CO","ZIP":81650,"GHG_QUANTITY":28886},"geometry":{"type":"Point","coordinates":[-107.7232517,39.4894897]}},{"type":"Feature","properties":{"NAME":"GRG - HIGH MESA CS","GHGRP_ID":1006331,"REPORTED ADDRESS":"","CITY":"PARACHUTE","COUNTY":"Garfield","STATE":"CO","ZIP":81635,"GHG_QUANTITY":26475},"geometry":{"type":"Point","coordinates":[-108.0590714,39.395581]}},{"type":"Feature","properties":{"NAME":"GRG - HUNTER MESA CS","GHGRP_ID":1006001,"REPORTED ADDRESS":"","CITY":"RIFLE, 3.3 MI SE OF","COUNTY":"Garfield","STATE":"CO","ZIP":81650,"GHG_QUANTITY":33019},"geometry":{"type":"Point","coordinates":[-107.7153515,39.4686107]}},{"type":"Feature","properties":{"NAME":"GRG - MAMM CREEK CS","GHGRP_ID":1006003,"REPORTED ADDRESS":"","CITY":"RIFLE","COUNTY":"Garfield","STATE":"CO","ZIP":81650,"GHG_QUANTITY":15199},"geometry":{"type":"Point","coordinates":[-107.7232517,39.4894897]}},{"type":"Feature","properties":{"NAME":"GRG - PUMBA CS","GHGRP_ID":1006004,"REPORTED ADDRESS":"","CITY":"RIFLE, 3.6 MI S OF","COUNTY":"Garfield","STATE":"CO","ZIP":81650,"GHG_QUANTITY":30802},"geometry":{"type":"Point","coordinates":[-107.7564733,39.4649163]}},{"type":"Feature","properties":{"NAME":"HOLMES MESA CMP STN","GHGRP_ID":1003252,"REPORTED ADDRESS":"","CITY":"RULISON","COUNTY":"Garfield","STATE":"CO","ZIP":81650,"GHG_QUANTITY":44975},"geometry":{"type":"Point","coordinates":[-107.926867,39.467984]}},{"type":"Feature","properties":{"NAME":"Hambert Compressor Station","GHGRP_ID":1011533,"REPORTED ADDRESS":"18450 Weld County Road 35","CITY":"Gilcrest","COUNTY":"WELD","STATE":"CO","ZIP":80623,"GHG_QUANTITY":31186},"geometry":{"type":"Point","coordinates":[-104.724297,40.2696]}},{"type":"Feature","properties":{"NAME":"Hayden","GHGRP_ID":1001466,"REPORTED ADDRESS":"12795 E YUTE","CITY":"HAYDEN","COUNTY":"Routt","STATE":"CO","ZIP":81639,"GHG_QUANTITY":3089050},"geometry":{"type":"Point","coordinates":[-107.185,40.4856]}},{"type":"Feature","properties":{"NAME":"Hayes Gulch Compressor Station","GHGRP_ID":1003014,"REPORTED ADDRESS":"","CITY":"PARACHUTE","COUNTY":"Garfield","STATE":"CO","ZIP":81635,"GHG_QUANTITY":25845},"geometry":{"type":"Point","coordinates":[-108.051398,39.466732]}},{"type":"Feature","properties":{"NAME":"Heath Compressor Station","GHGRP_ID":1002936,"REPORTED ADDRESS":"","CITY":"RIFLE","COUNTY":"Garfield","STATE":"CO","ZIP":81650,"GHG_QUANTITY":37520},"geometry":{"type":"Point","coordinates":[-107.884743,39.497639]}},{"type":"Feature","properties":{"NAME":"Holcim (US) Inc. - Portland Plant","GHGRP_ID":1003008,"REPORTED ADDRESS":"3500 Highway 120","CITY":"Florence","COUNTY":"FREMONT","STATE":"CO","ZIP":81226,"GHG_QUANTITY":931},"geometry":{"type":"Point","coordinates":[-105.039244,38.386936]}},{"type":"Feature","properties":{"NAME":"Hudson Compressor Station","GHGRP_ID":1002062,"REPORTED ADDRESS":"","CITY":"Brighton","COUNTY":"Weld","STATE":"CO","ZIP":80601,"GHG_QUANTITY":72096},"geometry":{"type":"Point","coordinates":[-104.7196,40.2235]}},{"type":"Feature","properties":{"NAME":"IGNACIO GAS PLANT","GHGRP_ID":1002532,"REPORTED ADDRESS":"3746 CR 307","CITY":"DURANGO","COUNTY":"LA PLATA","STATE":"CO","ZIP":81301,"GHG_QUANTITY":245418},"geometry":{"type":"Point","coordinates":[-107.784839,37.144682]}},{"type":"Feature","properties":{"NAME":"J.M. Shafer Generating Station","GHGRP_ID":1000559,"REPORTED ADDRESS":"6811 Weld County Road #31","CITY":"FORT LUPTON","COUNTY":"Weld","STATE":"CO","ZIP":80621,"GHG_QUANTITY":339265},"geometry":{"type":"Point","coordinates":[-104.7745,40.0979]}},{"type":"Feature","properties":{"NAME":"JBS Swift Beef Company - Greeley Plant","GHGRP_ID":1004022,"REPORTED ADDRESS":"800 North 8th Avenue","CITY":"Greeley","COUNTY":"WELD COUNTY","STATE":"CO","ZIP":80632,"GHG_QUANTITY":55182},"geometry":{"type":"Point","coordinates":[-104.69233,40.44278]}},{"type":"Feature","properties":{"NAME":"Jackrabbit Compressor Station","GHGRP_ID":1005036,"REPORTED ADDRESS":"13064 Garden Gulch Rd.","CITY":"Parachute","COUNTY":"GARFIELD","STATE":"CO","ZIP":81635,"GHG_QUANTITY":22232},"geometry":{"type":"Point","coordinates":[-108.095435,39.485628]}},{"type":"Feature","properties":{"NAME":"Koch Meeker Gas Plant","GHGRP_ID":1010030,"REPORTED ADDRESS":"929 Penny Dr","CITY":"Meeker","COUNTY":"RIO BLANCO COUNTY","STATE":"CO","ZIP":81641,"GHG_QUANTITY":15908},"geometry":{"type":"Point","coordinates":[-107.763621,39.977742]}},{"type":"Feature","properties":{"NAME":"LA PLATA \\A\\ CMP STN","GHGRP_ID":1005882,"REPORTED ADDRESS":"3775 COUNTY ROAD 307","CITY":"DURANGO","COUNTY":"LA PLATA","STATE":"CO","ZIP":81301,"GHG_QUANTITY":17943},"geometry":{"type":"Point","coordinates":[-107.786771,37.143579]}},{"type":"Feature","properties":{"NAME":"LADDER CREEK HELIUM PLANT","GHGRP_ID":1002352,"REPORTED ADDRESS":"41707 COUNTY ROAD P","CITY":"CHEYENNE WELLS","COUNTY":"CHEYENNE","STATE":"CO","ZIP":80810,"GHG_QUANTITY":32979},"geometry":{"type":"Point","coordinates":[-102.413156,39.014999]}},{"type":"Feature","properties":{"NAME":"LARIMER COUNTY LANDFILL","GHGRP_ID":1005928,"REPORTED ADDRESS":"5887 SOUTH TAFT HILL ROAD","CITY":"FORT COLLINS","COUNTY":"LARIMER COUNTY","STATE":"CO","ZIP":80526,"GHG_QUANTITY":43},"geometry":{"type":"Point","coordinates":[-105.12032,40.49803]}},{"type":"Feature","properties":{"NAME":"LINDE LLC CORTEZ PLANT","GHGRP_ID":1007715,"REPORTED ADDRESS":"14207  RD G","CITY":"CORTEZ","COUNTY":"MONTEZUMA","STATE":"CO","ZIP":81321,"GHG_QUANTITY":916},"geometry":{"type":"Point","coordinates":[-109.017397,37.327457]}},{"type":"Feature","properties":{"NAME":"LUCERNE GAS PLANT","GHGRP_ID":1002355,"REPORTED ADDRESS":"31495 COUNTY ROAD 43","CITY":"GREELEY","COUNTY":"WELD","STATE":"CO","ZIP":80631,"GHG_QUANTITY":74450},"geometry":{"type":"Point","coordinates":[-104.664686,40.457201]}},{"type":"Feature","properties":{"NAME":"Leprino Foods, Greeley","GHGRP_ID":1006479,"REPORTED ADDRESS":"1302 1 st Avenue","CITY":"Greeley","COUNTY":"WELD","STATE":"CO","ZIP":80631,"GHG_QUANTITY":38254},"geometry":{"type":"Point","coordinates":[-104.675853,40.416952]}},{"type":"Feature","properties":{"NAME":"Limon Generating Station","GHGRP_ID":1000060,"REPORTED ADDRESS":"48303 STATE ROAD 71","CITY":"LIMON","COUNTY":"Lincoln","STATE":"CO","ZIP":80828,"GHG_QUANTITY":20244},"geometry":{"type":"Point","coordinates":[-103.7005,39.2038]}},{"type":"Feature","properties":{"NAME":"MARLA COMPRESSOR STATION","GHGRP_ID":1006309,"REPORTED ADDRESS":"","CITY":"KERSEY","COUNTY":"Weld","STATE":"CO","ZIP":80644,"GHG_QUANTITY":29247},"geometry":{"type":"Point","coordinates":[-104.5475,40.2767]}},{"type":"Feature","properties":{"NAME":"MEWBOURN GAS PLANT","GHGRP_ID":1006131,"REPORTED ADDRESS":"18455 WELD COUNTY RD 35","CITY":"GILCREST","COUNTY":"WELD","STATE":"CO","ZIP":80623,"GHG_QUANTITY":158519},"geometry":{"type":"Point","coordinates":[-104.734944,40.266583]}},{"type":"Feature","properties":{"NAME":"MVS Compressor Station","GHGRP_ID":1001716,"REPORTED ADDRESS":"69861 Highway 330E","CITY":"Collbran","COUNTY":"MESA","STATE":"CO","ZIP":81624,"GHG_QUANTITY":15501},"geometry":{"type":"Point","coordinates":[-107.74001,39.277176]}},{"type":"Feature","properties":{"NAME":"Manchief Generating Station","GHGRP_ID":1001327,"REPORTED ADDRESS":"14936 COUNTY ROAD 24","CITY":"BRUSH","COUNTY":"Morgan","STATE":"CO","ZIP":80723,"GHG_QUANTITY":108886},"geometry":{"type":"Point","coordinates":[-103.679,40.2201]}},{"type":"Feature","properties":{"NAME":"Martin Drake","GHGRP_ID":1001465,"REPORTED ADDRESS":"700 S CONEJOS ST","CITY":"COLORADO SPRINGS","COUNTY":"El Paso","STATE":"CO","ZIP":80903,"GHG_QUANTITY":1650120},"geometry":{"type":"Point","coordinates":[-104.8331,38.8244]}},{"type":"Feature","properties":{"NAME":"Mead Compressor Station","GHGRP_ID":1011898,"REPORTED ADDRESS":"","CITY":"Platteville","COUNTY":"Weld","STATE":"CO","ZIP":80651,"GHG_QUANTITY":25693},"geometry":{"type":"Point","coordinates":[-104.871885,40.18097]}},{"type":"Feature","properties":{"NAME":"Meeker Compressor Station","GHGRP_ID":1002912,"REPORTED ADDRESS":"26100 CR 5","CITY":"Rifle","COUNTY":"GARFIELD","STATE":"CO","ZIP":81650,"GHG_QUANTITY":23957},"geometry":{"type":"Point","coordinates":[-108.290437,39.891773]}},{"type":"Feature","properties":{"NAME":"Meeker Gas Plant","GHGRP_ID":1004822,"REPORTED ADDRESS":"27991 County Rd 5","CITY":"Rifle","COUNTY":"GARFIELD","STATE":"CO","ZIP":81650,"GHG_QUANTITY":105809},"geometry":{"type":"Point","coordinates":[-108.294316,39.910727]}},{"type":"Feature","properties":{"NAME":"Midway Landfill","GHGRP_ID":1007863,"REPORTED ADDRESS":"8925 Rancho Colorado Boulevard","CITY":"Fountain","COUNTY":"PUEBLO","STATE":"CO","ZIP":80817,"GHG_QUANTITY":240},"geometry":{"type":"Point","coordinates":[-104.661847,38.547492]}},{"type":"Feature","properties":{"NAME":"NORTH WELD SANITARY LANDFILL","GHGRP_ID":1007880,"REPORTED ADDRESS":"40000 WELD COUNTY RD 25","CITY":"AULT","COUNTY":"WELD","STATE":"CO","ZIP":80610,"GHG_QUANTITY":3254},"geometry":{"type":"Point","coordinates":[-104.8318,40.58156]}},{"type":"Feature","properties":{"NAME":"Natural Soda","GHGRP_ID":1010576,"REPORTED ADDRESS":"3200 CR31","CITY":"Rifle","COUNTY":"RIO BLANCO COUNTY","STATE":"CO","ZIP":81650,"GHG_QUANTITY":50798},"geometry":{"type":"Point","coordinates":[-108.332665,39.886477]}},{"type":"Feature","properties":{"NAME":"Nucla","GHGRP_ID":1007676,"REPORTED ADDRESS":"30739 DD 30 ROAD","CITY":"NUCLA","COUNTY":"Montrose","STATE":"CO","ZIP":81424,"GHG_QUANTITY":543808},"geometry":{"type":"Point","coordinates":[-108.5083,38.2387]}},{"type":"Feature","properties":{"NAME":"O'Connor Gas Plant","GHGRP_ID":1010119,"REPORTED ADDRESS":"","CITY":"LaSalle","COUNTY":"Weld","STATE":"CO","ZIP":80645,"GHG_QUANTITY":42726},"geometry":{"type":"Point","coordinates":[-104.587772,40.352206]}},{"type":"Feature","properties":{"NAME":"OWENS-BROCKWAY GLASS CONTAINER INC PLANT 28","GHGRP_ID":1001975,"REPORTED ADDRESS":"11133 Eastman Park Drive","CITY":"Windsor","COUNTY":"WELD COUNTY","STATE":"CO","ZIP":80550,"GHG_QUANTITY":60748},"geometry":{"type":"Point","coordinates":[-104.849165,40.461452]}},{"type":"Feature","properties":{"NAME":"Outlaw Compressor Station","GHGRP_ID":1001947,"REPORTED ADDRESS":"","CITY":"DURANGO","COUNTY":"La Plata","STATE":"CO","ZIP":81303,"GHG_QUANTITY":8231},"geometry":{"type":"Point","coordinates":[-107.7786,37.1745]}},{"type":"Feature","properties":{"NAME":"Oxbow Mining, LLC","GHGRP_ID":1009623,"REPORTED ADDRESS":"3737 Highway 133","CITY":"Somerset","COUNTY":"GUNNISON COUNTY","STATE":"CO","ZIP":81434,"GHG_QUANTITY":14989},"geometry":{"type":"Point","coordinates":[-107.470007,38.926289]}},{"type":"Feature","properties":{"NAME":"PIONEER NAT RES - BURRO CANYON CS","GHGRP_ID":1002533,"REPORTED ADDRESS":"","CITY":"COKEDALE 2.3 MI. W OF","COUNTY":"Las Animas","STATE":"CO","ZIP":81082,"GHG_QUANTITY":31704},"geometry":{"type":"Point","coordinates":[-104.66506,37.15515]}},{"type":"Feature","properties":{"NAME":"PIONEER NAT RES - TAMBURELLI CS","GHGRP_ID":1002535,"REPORTED ADDRESS":"","CITY":"COKEDALE, 7.7 MI N OF","COUNTY":"Las Animas","STATE":"CO","ZIP":81082,"GHG_QUANTITY":36914},"geometry":{"type":"Point","coordinates":[-104.657,37.2532]}},{"type":"Feature","properties":{"NAME":"PIONEER NAT RESOURCES - COTTONTAIL PASS","GHGRP_ID":1006559,"REPORTED ADDRESS":"","CITY":"COKEDALE","COUNTY":"Las Animas","STATE":"CO","ZIP":81082,"GHG_QUANTITY":43277},"geometry":{"type":"Point","coordinates":[-104.7824,37.21847]}},{"type":"Feature","properties":{"NAME":"PIONEER NAT RESOURCES - WET CANYON CS","GHGRP_ID":1002534,"REPORTED ADDRESS":"","CITY":"COKEDALE","COUNTY":"Las Animas","STATE":"CO","ZIP":81082,"GHG_QUANTITY":40769},"geometry":{"type":"Point","coordinates":[-104.85782,37.1519]}},{"type":"Feature","properties":{"NAME":"PLAINS END Generating Station","GHGRP_ID":1003138,"REPORTED ADDRESS":"8950 HIGHWAY 93","CITY":"Arvada","COUNTY":"JEFFERSON","STATE":"CO","ZIP":80007,"GHG_QUANTITY":23660},"geometry":{"type":"Point","coordinates":[-105.240616,39.872093]}},{"type":"Feature","properties":{"NAME":"PLATTEVILLE GAS PLANT","GHGRP_ID":1005678,"REPORTED ADDRESS":"13675 WELD COUNTY ROAD 34","CITY":"PLATTEVILLE","COUNTY":"WELD","STATE":"CO","ZIP":80651,"GHG_QUANTITY":48486},"geometry":{"type":"Point","coordinates":[-104.798221,40.232045]}},{"type":"Feature","properties":{"NAME":"PUBLIC SERVICE CO DENVER STEAM PLT","GHGRP_ID":1002817,"REPORTED ADDRESS":"1875 DELGANY STREET (19TH AND DELGANY)","CITY":"DENVER","COUNTY":"DENVER","STATE":"CO","ZIP":80202,"GHG_QUANTITY":61069},"geometry":{"type":"Point","coordinates":[-104.99924,39.75583]}},{"type":"Feature","properties":{"NAME":"Pawnee","GHGRP_ID":1001048,"REPORTED ADDRESS":"14940 County Road 24","CITY":"Brush","COUNTY":"Morgan","STATE":"CO","ZIP":80723,"GHG_QUANTITY":4119217},"geometry":{"type":"Point","coordinates":[-103.6803,40.2217]}},{"type":"Feature","properties":{"NAME":"Plateville Compressor Station","GHGRP_ID":1006880,"REPORTED ADDRESS":"","CITY":"Brighton","COUNTY":"Weld","STATE":"CO","ZIP":80601,"GHG_QUANTITY":36807},"geometry":{"type":"Point","coordinates":[-104.7196,40.2235]}},{"type":"Feature","properties":{"NAME":"Pueblo Airport Generating Station","GHGRP_ID":1000558,"REPORTED ADDRESS":"400 N 27th Lane","CITY":"Pueblo","COUNTY":"Pueblo","STATE":"CO","ZIP":81001,"GHG_QUANTITY":541705},"geometry":{"type":"Point","coordinates":[-104.533,38.322]}},{"type":"Feature","properties":{"NAME":"Pump Canyon Compreesor Station","GHGRP_ID":1011983,"REPORTED ADDRESS":"","CITY":"Durango","COUNTY":"La Plata","STATE":"CO","ZIP":81301,"GHG_QUANTITY":27505},"geometry":{"type":"Point","coordinates":[-107.679114,37.045517]}},{"type":"Feature","properties":{"NAME":"RIFLE CMP STN","GHGRP_ID":1006929,"REPORTED ADDRESS":"","CITY":"RIFLE","COUNTY":"Garfield","STATE":"CO","ZIP":81650,"GHG_QUANTITY":29886},"geometry":{"type":"Point","coordinates":[-107.829371,39.531599]}},{"type":"Feature","properties":{"NAME":"ROCKY MOUNTAIN BOTTLE COMPANY","GHGRP_ID":1003465,"REPORTED ADDRESS":"10619 W 50TH AVE","CITY":"WHEAT RIDGE","COUNTY":"JEFFERSON COUNTY","STATE":"CO","ZIP":80033,"GHG_QUANTITY":57199},"geometry":{"type":"Point","coordinates":[-105.11498,39.78741]}},{"type":"Feature","properties":{"NAME":"ROGGEN GAS PLANT","GHGRP_ID":1002031,"REPORTED ADDRESS":"35409 WELD COUNTY ROAD 18","CITY":"ROGGEN","COUNTY":"WELD","STATE":"CO","ZIP":80652,"GHG_QUANTITY":41303},"geometry":{"type":"Point","coordinates":[-104.387444,40.117556]}},{"type":"Feature","properties":{"NAME":"Rabbit Brush Compressor Station","GHGRP_ID":1002946,"REPORTED ADDRESS":"","CITY":"Parachute","COUNTY":"Garfield","STATE":"CO","ZIP":81635,"GHG_QUANTITY":24300},"geometry":{"type":"Point","coordinates":[-108.021664,39.478517]}},{"type":"Feature","properties":{"NAME":"Rangely Gas Plant","GHGRP_ID":1009244,"REPORTED ADDRESS":"100 Chevron Road","CITY":"Rangely","COUNTY":"","STATE":"CO","ZIP":81648,"GHG_QUANTITY":10826},"geometry":{"type":"Point","coordinates":[-108.8670246,40.1064831]}},{"type":"Feature","properties":{"NAME":"Rawhide Energy Station","GHGRP_ID":1001062,"REPORTED ADDRESS":"2700 East County Road 82","CITY":"Wellington","COUNTY":"Larimer","STATE":"CO","ZIP":80549,"GHG_QUANTITY":1881687},"geometry":{"type":"Point","coordinates":[-105.0206,40.8611]}},{"type":"Feature","properties":{"NAME":"Ray D Nixon","GHGRP_ID":1001195,"REPORTED ADDRESS":"6598 RAY NIXON RD","CITY":"FOUNTAIN","COUNTY":"El Paso","STATE":"CO","ZIP":80817,"GHG_QUANTITY":1555825},"geometry":{"type":"Point","coordinates":[-104.7056,38.6306]}},{"type":"Feature","properties":{"NAME":"Rocky Mountain Energy Center","GHGRP_ID":1000271,"REPORTED ADDRESS":"6211 WELD COUNTY RD 51","CITY":"KEENESBURG","COUNTY":"Weld","STATE":"CO","ZIP":80643,"GHG_QUANTITY":827194},"geometry":{"type":"Point","coordinates":[-104.5947,40.0911]}},{"type":"Feature","properties":{"NAME":"Rocky Turbine Compressor Station","GHGRP_ID":1011877,"REPORTED ADDRESS":"","CITY":"Kersey","COUNTY":"Weld","STATE":"CO","ZIP":80624,"GHG_QUANTITY":26274},"geometry":{"type":"Point","coordinates":[-104.4039,40.4639]}},{"type":"Feature","properties":{"NAME":"Ryan Gulch Compressor Station","GHGRP_ID":1002941,"REPORTED ADDRESS":"","CITY":"MEEKER, 23.3 MI W OF","COUNTY":"Rio Blanco","STATE":"CO","ZIP":81641,"GHG_QUANTITY":33802},"geometry":{"type":"Point","coordinates":[-108.3347,39.8981]}},{"type":"Feature","properties":{"NAME":"SAMSON RESOURCES SPRING CREEK CS","GHGRP_ID":1001067,"REPORTED ADDRESS":"","CITY":"IGNACIO","COUNTY":"La Plata","STATE":"CO","ZIP":81137,"GHG_QUANTITY":35474},"geometry":{"type":"Point","coordinates":[-107.576296,37.092635]}},{"type":"Feature","properties":{"NAME":"SOUTH IGNACIO CDP","GHGRP_ID":1006519,"REPORTED ADDRESS":"","CITY":"IGNACIO","COUNTY":"La Plata","STATE":"CO","ZIP":81137,"GHG_QUANTITY":26657},"geometry":{"type":"Point","coordinates":[-107.625701,37.054116]}},{"type":"Feature","properties":{"NAME":"SPINDLE GAS PROCESSING PLANT","GHGRP_ID":1002415,"REPORTED ADDRESS":"9101 WELD COUNTY RD 14","CITY":"FT LUPTON","COUNTY":"WELD","STATE":"CO","ZIP":80621,"GHG_QUANTITY":42617},"geometry":{"type":"Point","coordinates":[-104.884194,40.088944]}},{"type":"Feature","properties":{"NAME":"STERLING ETHANOL, LLC","GHGRP_ID":1006055,"REPORTED ADDRESS":"450 ANGUS AVENUE","CITY":"STERLING","COUNTY":"LOGAN","STATE":"CO","ZIP":80751,"GHG_QUANTITY":53325},"geometry":{"type":"Point","coordinates":[-103.190556,40.6375]}},{"type":"Feature","properties":{"NAME":"SUMMIT COUNTY LANDFILL","GHGRP_ID":1005695,"REPORTED ADDRESS":"639 LANDFILL RD","CITY":"DILLON AREA","COUNTY":"SUMMIT","STATE":"CO","ZIP":80435,"GHG_QUANTITY":20},"geometry":{"type":"Point","coordinates":[-105.997922,39.608712]}},{"type":"Feature","properties":{"NAME":"SUNCOR ENERGY (USA) COMMERCE CITY REFINERY","GHGRP_ID":1007923,"REPORTED ADDRESS":"5801 BRIGHTON BLVD","CITY":"COMMERCE CITY","COUNTY":"ADAMS","STATE":"CO","ZIP":80022,"GHG_QUANTITY":558340},"geometry":{"type":"Point","coordinates":[-104.944444,39.805556]}},{"type":"Feature","properties":{"NAME":"Sambrito Compressor Station","GHGRP_ID":1001763,"REPORTED ADDRESS":"","CITY":"Durango","COUNTY":"La Plata","STATE":"CO","ZIP":81301,"GHG_QUANTITY":42844},"geometry":{"type":"Point","coordinates":[-107.4935,37.0445]}},{"type":"Feature","properties":{"NAME":"Spindle Hill Energy Center","GHGRP_ID":1000486,"REPORTED ADDRESS":"6335 WELD COUNTY RD 19","CITY":"Fort Lupton","COUNTY":"Weld","STATE":"CO","ZIP":80621,"GHG_QUANTITY":109020},"geometry":{"type":"Point","coordinates":[-104.8819,40.0914]}},{"type":"Feature","properties":{"NAME":"St. Vrain Compressor Station","GHGRP_ID":1011904,"REPORTED ADDRESS":"","CITY":"Platteville","COUNTY":"Weld","STATE":"CO","ZIP":80651,"GHG_QUANTITY":27731},"geometry":{"type":"Point","coordinates":[-104.88326806,40.23199641]}},{"type":"Feature","properties":{"NAME":"Sterling Energy Investments LLC Centennial Gas Plant","GHGRP_ID":1011986,"REPORTED ADDRESS":"47285 County Road 100","CITY":"Briggsdale","COUNTY":"","STATE":"CO","ZIP":80611,"GHG_QUANTITY":25190},"geometry":{"type":"Point","coordinates":[-104.285426,40.711642]}},{"type":"Feature","properties":{"NAME":"Story Gulch Compressor Station","GHGRP_ID":1010414,"REPORTED ADDRESS":"370 17th Street Suite 1700","CITY":"Denver","COUNTY":"DENVER COUNTY","STATE":"CO","ZIP":80202,"GHG_QUANTITY":65389},"geometry":{"type":"Point","coordinates":[-104.98796,39.74346]}},{"type":"Feature","properties":{"NAME":"Twentymile Mine","GHGRP_ID":1001682,"REPORTED ADDRESS":"29515 Route County Road #27","CITY":"Oak Creek","COUNTY":"ROUTT COUNTY","STATE":"CO","ZIP":80467,"GHG_QUANTITY":3428},"geometry":{"type":"Point","coordinates":[-107.081476,40.334417]}},{"type":"Feature","properties":{"NAME":"Twin Landfill Corporation","GHGRP_ID":1006834,"REPORTED ADDRESS":"20650 County Road 205","CITY":"Milner","COUNTY":"ROUTT COUNTY","STATE":"CO","ZIP":80487,"GHG_QUANTITY":11},"geometry":{"type":"Point","coordinates":[-107.04,40.474444]}},{"type":"Feature","properties":{"NAME":"US Air Force Academy","GHGRP_ID":1005492,"REPORTED ADDRESS":"8120 Edgerton Drive","CITY":"USAFA","COUNTY":"EL PASO","STATE":"CO","ZIP":80840,"GHG_QUANTITY":29965},"geometry":{"type":"Point","coordinates":[-104.860572,38.990611]}},{"type":"Feature","properties":{"NAME":"University of Colorado Boulder - Utility Services","GHGRP_ID":1002459,"REPORTED ADDRESS":"","CITY":"Boulder","COUNTY":"Boulder","STATE":"CO","ZIP":80309,"GHG_QUANTITY":31528},"geometry":{"type":"Point","coordinates":[-105.2693,40.0076]}},{"type":"Feature","properties":{"NAME":"Valmont","GHGRP_ID":1001463,"REPORTED ADDRESS":"1800 N 63RD ST","CITY":"BOULDER","COUNTY":"Boulder","STATE":"CO","ZIP":80302,"GHG_QUANTITY":1110684},"geometry":{"type":"Point","coordinates":[-105.202,40.0195]}},{"type":"Feature","properties":{"NAME":"Vanguard - BAILEY COMPRESSOR STATION","GHGRP_ID":1003047,"REPORTED ADDRESS":"","CITY":"Silt","COUNTY":"Garfield","STATE":"CO","ZIP":81652,"GHG_QUANTITY":52460},"geometry":{"type":"Point","coordinates":[-107.6464,39.5075]}},{"type":"Feature","properties":{"NAME":"Vanguard - MAMM CREEK COMPRESSOR STATION","GHGRP_ID":1003230,"REPORTED ADDRESS":"","CITY":"Silt","COUNTY":"Garfield","STATE":"CO","ZIP":81652,"GHG_QUANTITY":7758},"geometry":{"type":"Point","coordinates":[-107.7089,39.4917]}},{"type":"Feature","properties":{"NAME":"Vollmar Compressor Station","GHGRP_ID":1011910,"REPORTED ADDRESS":"","CITY":"Fort Lupton","COUNTY":"Weld","STATE":"CO","ZIP":80621,"GHG_QUANTITY":33729},"geometry":{"type":"Point","coordinates":[-104.85966,40.14429]}},{"type":"Feature","properties":{"NAME":"WESTERN AGGREGATES INCORPORATED","GHGRP_ID":1004379,"REPORTED ADDRESS":"11728 HIGHWAY 93","CITY":"BOULDER","COUNTY":"JEFFERSON COUNTY","STATE":"CO","ZIP":80303,"GHG_QUANTITY":20286},"geometry":{"type":"Point","coordinates":[-105.2386,39.90969]}},{"type":"Feature","properties":{"NAME":"WESTERN SUGAR COOP","GHGRP_ID":1001823,"REPORTED ADDRESS":"18317 HIGHWAY 144","CITY":"FORT MORGAN","COUNTY":"MORGAN","STATE":"CO","ZIP":80701,"GHG_QUANTITY":150687},"geometry":{"type":"Point","coordinates":[-103.80612,40.26269]}},{"type":"Feature","properties":{"NAME":"WIC Station 7938 Snake River, CO","GHGRP_ID":1008148,"REPORTED ADDRESS":"18640 County Road 4","CITY":"Craig","COUNTY":"MOFFAT COUNTY","STATE":"CO","ZIP":81625,"GHG_QUANTITY":28615},"geometry":{"type":"Point","coordinates":[-107.71353,40.97969]}},{"type":"Feature","properties":{"NAME":"WILLOW CREEK GAS PLANT","GHGRP_ID":1002319,"REPORTED ADDRESS":"20219 County Road 5","CITY":"Rifle","COUNTY":"RIO BLANCO","STATE":"CO","ZIP":81650,"GHG_QUANTITY":156815},"geometry":{"type":"Point","coordinates":[-107.763621,39.977742]}},{"type":"Feature","properties":{"NAME":"Wattenberg Gas Plant","GHGRP_ID":1003254,"REPORTED ADDRESS":"1909 Powhaton Road","CITY":"Aurora","COUNTY":"ADAMS","STATE":"CO","ZIP":80019,"GHG_QUANTITY":54436},"geometry":{"type":"Point","coordinates":[-104.681535,39.746431]}},{"type":"Feature","properties":{"NAME":"West Elk Mine","GHGRP_ID":1010310,"REPORTED ADDRESS":"5174 Highway 133","CITY":"Somerset","COUNTY":"GUNNISON COUNTY","STATE":"CO","ZIP":81434,"GHG_QUANTITY":7292},"geometry":{"type":"Point","coordinates":[-107.44687,38.92823]}},{"type":"Feature","properties":{"NAME":"XTO - HILL RANCH #1","GHGRP_ID":1005401,"REPORTED ADDRESS":"","CITY":"COKEDALE","COUNTY":"Las Animas","STATE":"CO","ZIP":81091,"GHG_QUANTITY":24358},"geometry":{"type":"Point","coordinates":[-104.8765,37.0588]}},{"type":"Feature","properties":{"NAME":"XTO - PICEANCE CREEK","GHGRP_ID":1002673,"REPORTED ADDRESS":"","CITY":"MEEKER","COUNTY":"Rio Blanco","STATE":"CO","ZIP":81641,"GHG_QUANTITY":6933},"geometry":{"type":"Point","coordinates":[-108.1947,39.8933]}},{"type":"Feature","properties":{"NAME":"YUMA ETHANOL, LLC","GHGRP_ID":1002083,"REPORTED ADDRESS":"38480 COUNTY ROAD H","CITY":"YUMA","COUNTY":"YUMA","STATE":"CO","ZIP":80759,"GHG_QUANTITY":49192},"geometry":{"type":"Point","coordinates":[-102.68,40.13]}},{"type":"Feature","properties":{"NAME":"Zuni","GHGRP_ID":1001464,"REPORTED ADDRESS":"1335 ZUNI ST","CITY":"DENVER","COUNTY":"Denver","STATE":"CO","ZIP":80204,"GHG_QUANTITY":23647},"geometry":{"type":"Point","coordinates":[-105.0169,39.7369]}}]}